[{"id": "AnErvo25lq0TpcbXq4G32w", "alias": "keever-and-associates-bellevue", "name": "Keever and Associates", "image_url": "https://s3-media3.fl.yelpcdn.com/bphoto/WK1tA1a3z-0tepNzsggzng/o.jpg", "is_closed": false, "url": "https://www.yelp.com/biz/keever-and-associates-bellevue?adjust_creative=-1fqk3b4uv9OCeinSAO6RQ&utm_campaign=yelp_api_v3&utm_medium=api_v3_business_search&utm_source=-1fqk3b4uv9OCeinSAO6RQ", "review_count": 1, "categories": [{"alias": "contractors", "title": "General Contractors"}], "rating": 5.0, "coordinates": {"latitude": 47.610377, "longitude": -122.2006786}, "transactions": [], "location": {"address1": "3320 168th Pl SE", "address2": "", "address3": "", "city": "Bellevue", "zip_code": "98008", "country": "US", "state": "WA", "display_address": ["3320 168th Pl SE", "Bellevue, WA 98008"]}, "phone": "+12069470503", "display_phone": "(206) 947-0503", "distance": 14424.879447279463}, {"id": "4fknsMN2ar2BMXFN6dkPwg", "alias": "the-broadway-building-seattle", "name": "The Broadway Building", "image_url": "https://s3-media3.fl.yelpcdn.com/bphoto/0pn4_X5eqDlZ_cLA3jkuHg/o.jpg", "is_closed": false, "url": "https://www.yelp.com/biz/the-broadway-building-seattle?adjust_creative=-1fqk3b4uv9OCeinSAO6RQ&utm_campaign=yelp_api_v3&utm_medium=api_v3_business_search&utm_source=-1fqk3b4uv9OCeinSAO6RQ", "review_count": 39, "categories": [{"alias": "apartments", "title": "Apartments"}], "rating": 4.0, "coordinates": {"latitude": 47.6160185, "longitude": -122.320139}, "transactions": [], "location": {"address1": "1641 Nagle Pl", "address2": null, "address3": "", "city": "Seattle", "zip_code": "98122", "country": "US", "state": "WA", "display_address": ["1641 Nagle Pl", "Seattle, WA 98122"]}, "phone": "+12063231500", "display_phone": "(206) 323-1500", "distance": 18029.31201208708}, {"id": "MKoQeMeVsYgUTbFzeuJosQ", "alias": "alaire-apartments-renton", "name": "Alaire Apartments", "image_url": "https://s3-media2.fl.yelpcdn.com/bphoto/gMpoFHfpo9JmwHvcnC26ag/o.jpg", "is_closed": false, "url": "https://www.yelp.com/biz/alaire-apartments-renton?adjust_creative=-1fqk3b4uv9OCeinSAO6RQ&utm_campaign=yelp_api_v3&utm_medium=api_v3_business_search&utm_source=-1fqk3b4uv9OCeinSAO6RQ", "review_count": 29, "categories": [{"alias": "apartments", "title": "Apartments"}], "rating": 2.0, "coordinates": {"latitude": 47.47663867855423, "longitude": -122.22454279352137}, "transactions": [], "location": {"address1": "510 Stevens Ave SW", "address2": null, "address3": "", "city": "Renton", "zip_code": "98057", "country": "US", "state": "WA", "display_address": ["510 Stevens Ave SW", "Renton, WA 98057"]}, "phone": "+14254488375", "display_phone": "(425) 448-8375", "distance": 2847.8211509906173}, {"id": "AwC3fQKE0_AdltECzoEjKA", "alias": "harbor-steps-apartments-seattle-2", "name": "Harbor Steps Apartments", "image_url": "https://s3-media3.fl.yelpcdn.com/bphoto/GyTqFJKI2ufq7Cbpdt6iFA/o.jpg", "is_closed": false, "url": "https://www.yelp.com/biz/harbor-steps-apartments-seattle-2?adjust_creative=-1fqk3b4uv9OCeinSAO6RQ&utm_campaign=yelp_api_v3&utm_medium=api_v3_business_search&utm_source=-1fqk3b4uv9OCeinSAO6RQ", "review_count": 142, "categories": [{"alias": "apartments", "title": "Apartments"}], "rating": 3.0, "coordinates": {"latitude": 47.6063434, "longitude": -122.3381982}, "transactions": [], "location": {"address1": "1221 1st Ave", "address2": "Ste 101", "address3": "", "city": "Seattle", "zip_code": "98101", "country": "US", "state": "WA", "display_address": ["1221 1st Ave", "Ste 101", "Seattle, WA 98101"]}, "phone": "+12066820800", "display_phone": "(206) 682-0800", "distance": 17966.956469142988}, {"id": "-8X9W99_hNSowq_LW0Guuw", "alias": "harrington-square-apartments-renton", "name": "Harrington Square Apartments", "image_url": "https://s3-media2.fl.yelpcdn.com/bphoto/6W3VV7znFBMKAqirbHmgCw/o.jpg", "is_closed": false, "url": "https://www.yelp.com/biz/harrington-square-apartments-renton?adjust_creative=-1fqk3b4uv9OCeinSAO6RQ&utm_campaign=yelp_api_v3&utm_medium=api_v3_business_search&utm_source=-1fqk3b4uv9OCeinSAO6RQ", "review_count": 45, "categories": [{"alias": "apartments", "title": "Apartments"}], "rating": 2.0, "coordinates": {"latitude": 47.4979, "longitude": -122.18094}, "transactions": [], "location": {"address1": "950 Harrington Ave NE", "address2": null, "address3": null, "city": "Renton", "zip_code": "98056", "country": "US", "state": "WA", "display_address": ["950 Harrington Ave NE", "Renton, WA 98056"]}, "phone": "+18335436944", "display_phone": "(833) 543-6944", "distance": 1940.2538277884732}, {"id": "WJvoj4Pq86yj69vAzWGDdQ", "alias": "bellevue-meadows-apartments-bellevue-2", "name": "Bellevue Meadows Apartments", "image_url": "https://s3-media2.fl.yelpcdn.com/bphoto/8GHuVjo5F1LYtmE0g4duIQ/o.jpg", "is_closed": false, "url": "https://www.yelp.com/biz/bellevue-meadows-apartments-bellevue-2?adjust_creative=-1fqk3b4uv9OCeinSAO6RQ&utm_campaign=yelp_api_v3&utm_medium=api_v3_business_search&utm_source=-1fqk3b4uv9OCeinSAO6RQ", "review_count": 15, "categories": [{"alias": "apartments", "title": "Apartments"}], "rating": 3.5, "coordinates": {"latitude": 47.6105427, "longitude": -122.142426}, "transactions": [], "location": {"address1": "4277 148th Ave NE", "address2": "", "address3": null, "city": "Bellevue", "zip_code": "98007", "country": "US", "state": "WA", "display_address": ["4277 148th Ave NE", "Bellevue, WA 98007"]}, "phone": "+14258823401", "display_phone": "(425) 882-3401", "distance": 14794.404137964115}, {"id": "gAvv1npHSYK-m2gA8F_qow", "alias": "the-station-at-othello-park-apartments-seattle", "name": "The Station at Othello Park Apartments", "image_url": "https://s3-media1.fl.yelpcdn.com/bphoto/uBwomudVzh2uOtUlTcA1MQ/o.jpg", "is_closed": false, "url": "https://www.yelp.com/biz/the-station-at-othello-park-apartments-seattle?adjust_creative=-1fqk3b4uv9OCeinSAO6RQ&utm_campaign=yelp_api_v3&utm_medium=api_v3_business_search&utm_source=-1fqk3b4uv9OCeinSAO6RQ", "review_count": 64, "categories": [{"alias": "apartments", "title": "Apartments"}], "rating": 2.0, "coordinates": {"latitude": 47.536454, "longitude": -122.280092}, "transactions": [], "location": {"address1": "4219 S Othello St", "address2": null, "address3": "", "city": "Seattle", "zip_code": "98118", "country": "US", "state": "WA", "display_address": ["4219 S Othello St", "Seattle, WA 98118"]}, "phone": "+12067828466", "display_phone": "(206) 782-8466", "distance": 9313.839653642719}, {"id": "vAlfam3hqrMKymlL4F45GQ", "alias": "link-apartments-seattle", "name": "Link Apartments", "image_url": "https://s3-media2.fl.yelpcdn.com/bphoto/rPK6d4H0lDIqdP_48GDxgQ/o.jpg", "is_closed": false, "url": "https://www.yelp.com/biz/link-apartments-seattle?adjust_creative=-1fqk3b4uv9OCeinSAO6RQ&utm_campaign=yelp_api_v3&utm_medium=api_v3_business_search&utm_source=-1fqk3b4uv9OCeinSAO6RQ", "review_count": 49, "categories": [{"alias": "apartments", "title": "Apartments"}], "rating": 3.5, "coordinates": {"latitude": 47.56147, "longitude": -122.37975}, "transactions": [], "location": {"address1": "4550 38th Ave SW", "address2": null, "address3": "", "city": "Seattle", "zip_code": "98126", "country": "US", "state": "WA", "display_address": ["4550 38th Ave SW", "Seattle, WA 98126"]}, "phone": "+12069375465", "display_phone": "(206) 937-5465", "distance": 17012.240133641368}, {"id": "FNxYVpRVk6RL1MwQkQ956w", "alias": "park-hill-at-issaquah-issaquah-2", "name": "Park Hill at Issaquah Apartments", "image_url": "https://s3-media2.fl.yelpcdn.com/bphoto/oOb-1dIbwq8xMVD-6ZCZyA/o.jpg", "is_closed": false, "url": "https://www.yelp.com/biz/park-hill-at-issaquah-issaquah-2?adjust_creative=-1fqk3b4uv9OCeinSAO6RQ&utm_campaign=yelp_api_v3&utm_medium=api_v3_business_search&utm_source=-1fqk3b4uv9OCeinSAO6RQ", "review_count": 19, "categories": [{"alias": "apartments", "title": "Apartments"}], "rating": 2.5, "coordinates": {"latitude": 47.55341778941413, "longitude": -122.04017221988926}, "transactions": [], "location": {"address1": "22500 SE 56th St", "address2": "", "address3": "", "city": "Issaquah", "zip_code": "98029", "country": "US", "state": "WA", "display_address": ["22500 SE 56th St", "Issaquah, WA 98029"]}, "phone": "+14255890605", "display_phone": "(425) 589-0605", "distance": 13667.466083658099}, {"id": "rPvqFxWnr6TU_IqtXPgi5A", "alias": "seattle-rental-group-seattle", "name": "Seattle Rental Group", "image_url": "https://s3-media2.fl.yelpcdn.com/bphoto/ClXv6C82QMcz-TumMtYt4w/o.jpg", "is_closed": false, "url": "https://www.yelp.com/biz/seattle-rental-group-seattle?adjust_creative=-1fqk3b4uv9OCeinSAO6RQ&utm_campaign=yelp_api_v3&utm_medium=api_v3_business_search&utm_source=-1fqk3b4uv9OCeinSAO6RQ", "review_count": 91, "categories": [{"alias": "propertymgmt", "title": "Property Management"}, {"alias": "realestatesvcs", "title": "Real Estate Services"}], "rating": 4.5, "coordinates": {"latitude": 47.650885, "longitude": -122.350142}, "transactions": [], "location": {"address1": "3509 Fremont Ave N", "address2": "Ste 300", "address3": "", "city": "Seattle", "zip_code": "98103", "country": "US", "state": "WA", "display_address": ["3509 Fremont Ave N", "Ste 300", "Seattle, WA 98103"]}, "phone": "+12063154628", "display_phone": "(206) 315-4628", "distance": 22504.05060568004}, {"id": "pMqGXvGTM6FOW0tcBSopTA", "alias": "karbon-newcastle-4", "name": "Karbon", "image_url": "https://s3-media1.fl.yelpcdn.com/bphoto/6NQTi40g5IDLn9bObYLDDQ/o.jpg", "is_closed": false, "url": "https://www.yelp.com/biz/karbon-newcastle-4?adjust_creative=-1fqk3b4uv9OCeinSAO6RQ&utm_campaign=yelp_api_v3&utm_medium=api_v3_business_search&utm_source=-1fqk3b4uv9OCeinSAO6RQ", "review_count": 31, "categories": [{"alias": "apartments", "title": "Apartments"}], "rating": 2.5, "coordinates": {"latitude": 47.5385709, "longitude": -122.1659883}, "transactions": [], "location": {"address1": "6802 Coal Creek Pkwy SE", "address2": "", "address3": "", "city": "Newcastle", "zip_code": "98059", "country": "US", "state": "WA", "display_address": ["6802 Coal Creek Pkwy SE", "Newcastle, WA 98059"]}, "phone": "+14257487930", "display_phone": "(425) 748-7930", "distance": 6599.946109525936}, {"id": "HymOqV_SqOikTv3PwTUbhA", "alias": "fountain-court-apartments-seattle-2", "name": "Fountain Court Apartments", "image_url": "https://s3-media1.fl.yelpcdn.com/bphoto/t5-zrVMAFLXkAGJfgoVfFg/o.jpg", "is_closed": false, "url": "https://www.yelp.com/biz/fountain-court-apartments-seattle-2?adjust_creative=-1fqk3b4uv9OCeinSAO6RQ&utm_campaign=yelp_api_v3&utm_medium=api_v3_business_search&utm_source=-1fqk3b4uv9OCeinSAO6RQ", "review_count": 57, "categories": [{"alias": "apartments", "title": "Apartments"}], "rating": 3.0, "coordinates": {"latitude": 47.6169195, "longitude": -122.3451212}, "transactions": [], "location": {"address1": "2400 4th Ave", "address2": "", "address3": "", "city": "Seattle", "zip_code": "98121", "country": "US", "state": "WA", "display_address": ["2400 4th Ave", "Seattle, WA 98121"]}, "phone": "+12063363404", "display_phone": "(206) 336-3404", "distance": 19209.491001362934}, {"id": "GKTQ_mZHbE4J9AugeKuUyQ", "alias": "mosiac-hills-kent-2", "name": "Mosiac Hills", "image_url": "https://s3-media2.fl.yelpcdn.com/bphoto/4jX_L_wRSKoq1njtyWJa7A/o.jpg", "is_closed": false, "url": "https://www.yelp.com/biz/mosiac-hills-kent-2?adjust_creative=-1fqk3b4uv9OCeinSAO6RQ&utm_campaign=yelp_api_v3&utm_medium=api_v3_business_search&utm_source=-1fqk3b4uv9OCeinSAO6RQ", "review_count": 18, "categories": [{"alias": "apartments", "title": "Apartments"}], "rating": 1.5, "coordinates": {"latitude": 47.38753, "longitude": -122.19672}, "transactions": [], "location": {"address1": "10811 SE 239th Pl", "address2": null, "address3": "", "city": "Kent", "zip_code": "98031", "country": "US", "state": "WA", "display_address": ["10811 SE 239th Pl", "Kent, WA 98031"]}, "phone": "+12538547510", "display_phone": "(253) 854-7510", "distance": 10361.706179199216}, {"id": "Xz22Gj4yTrcg4hzji7vcmg", "alias": "allegro-apartment-homes-covington", "name": "Allegro Apartment Homes", "image_url": "https://s3-media2.fl.yelpcdn.com/bphoto/hLU8Ot9PgW3OU0_toTxzVA/o.jpg", "is_closed": false, "url": "https://www.yelp.com/biz/allegro-apartment-homes-covington?adjust_creative=-1fqk3b4uv9OCeinSAO6RQ&utm_campaign=yelp_api_v3&utm_medium=api_v3_business_search&utm_source=-1fqk3b4uv9OCeinSAO6RQ", "review_count": 9, "categories": [{"alias": "apartments", "title": "Apartments"}], "rating": 3.5, "coordinates": {"latitude": 47.3601219, "longitude": -122.1127943}, "transactions": [], "location": {"address1": "17126 SE 269th Place", "address2": "", "address3": "", "city": "Covington", "zip_code": "98043", "country": "US", "state": "WA", "display_address": ["17126 SE 269th Place", "Covington, WA 98043"]}, "phone": "+12536393332", "display_phone": "(253) 639-3332", "distance": 14556.974510591908}, {"id": "CK7gXq7o2WfKSDhYDyX52g", "alias": "island-park-apartment-homes-kent-2", "name": "Island Park Apartment Homes", "image_url": "https://s3-media4.fl.yelpcdn.com/bphoto/O4EbD1fo81fTCxvXow6zZA/o.jpg", "is_closed": false, "url": "https://www.yelp.com/biz/island-park-apartment-homes-kent-2?adjust_creative=-1fqk3b4uv9OCeinSAO6RQ&utm_campaign=yelp_api_v3&utm_medium=api_v3_business_search&utm_source=-1fqk3b4uv9OCeinSAO6RQ", "review_count": 16, "categories": [{"alias": "apartments", "title": "Apartments"}], "rating": 2.5, "coordinates": {"latitude": 47.389946234713534, "longitude": -122.26038127247703}, "transactions": [], "location": {"address1": "23529 - 60th Ave South", "address2": "", "address3": "", "city": "Kent", "zip_code": "98032", "country": "US", "state": "WA", "display_address": ["23529 - 60th Ave South", "Kent, WA 98032"]}, "phone": "+12538592282", "display_phone": "(253) 859-2282", "distance": 11521.485316100594}, {"id": "2z2-Ao5vUTEPpiITlWz2jA", "alias": "a-new-view-cleaners-issaquah", "name": "A New View Cleaners", "image_url": "https://s3-media2.fl.yelpcdn.com/bphoto/2xa8Qg_T6Kvjwo00C2JJ_w/o.jpg", "is_closed": false, "url": "https://www.yelp.com/biz/a-new-view-cleaners-issaquah?adjust_creative=-1fqk3b4uv9OCeinSAO6RQ&utm_campaign=yelp_api_v3&utm_medium=api_v3_business_search&utm_source=-1fqk3b4uv9OCeinSAO6RQ", "review_count": 28, "categories": [{"alias": "homecleaning", "title": "Home Cleaning"}], "rating": 5.0, "coordinates": {"latitude": 47.564277, "longitude": -122.093311}, "transactions": [], "location": {"address1": "4521 185th Ave SE", "address2": null, "address3": "", "city": "Issaquah", "zip_code": "98027", "country": "US", "state": "WA", "display_address": ["4521 185th Ave SE", "Issaquah, WA 98027"]}, "phone": "+12066700793", "display_phone": "(206) 670-0793", "distance": 11640.44721656928}, {"id": "0-e7Pvvfo41bAxFwK2ptAw", "alias": "discovery-west-issaquah", "name": "Discovery West", "image_url": "https://s3-media4.fl.yelpcdn.com/bphoto/Pcjh-h8WVtdhq-S3UqypTA/o.jpg", "is_closed": false, "url": "https://www.yelp.com/biz/discovery-west-issaquah?adjust_creative=-1fqk3b4uv9OCeinSAO6RQ&utm_campaign=yelp_api_v3&utm_medium=api_v3_business_search&utm_source=-1fqk3b4uv9OCeinSAO6RQ", "review_count": 11, "categories": [{"alias": "apartments", "title": "Apartments"}], "rating": 2.0, "coordinates": {"latitude": 47.53715, "longitude": -122.02027}, "transactions": [], "location": {"address1": "580 8th Ave NE", "address2": "", "address3": null, "city": "Issaquah", "zip_code": "98029", "country": "US", "state": "WA", "display_address": ["580 8th Ave NE", "Issaquah, WA 98029"]}, "phone": "+14253995003", "display_phone": "(425) 399-5003", "distance": 14010.596933248073}, {"id": "Ka8fJTY08l-HGZzbNyJSaw", "alias": "via6-apartments-seattle", "name": "Via6 Apartments", "image_url": "https://s3-media1.fl.yelpcdn.com/bphoto/1Ue9XZjx6ljYD3tpuz6FlA/o.jpg", "is_closed": false, "url": "https://www.yelp.com/biz/via6-apartments-seattle?adjust_creative=-1fqk3b4uv9OCeinSAO6RQ&utm_campaign=yelp_api_v3&utm_medium=api_v3_business_search&utm_source=-1fqk3b4uv9OCeinSAO6RQ", "review_count": 121, "categories": [{"alias": "apartments", "title": "Apartments"}], "rating": 3.0, "coordinates": {"latitude": 47.61517, "longitude": -122.34007}, "transactions": [], "location": {"address1": "2121 6th Ave", "address2": null, "address3": "", "city": "Seattle", "zip_code": "98121", "country": "US", "state": "WA", "display_address": ["2121 6th Ave", "Seattle, WA 98121"]}, "phone": "+12068662776", "display_phone": "(206) 866-2776", "distance": 18821.607654413052}, {"id": "BOwTEZHPqba6ZpH9fJN_qg", "alias": "coppins-well-seattle", "name": "Coppins Well", "image_url": "https://s3-media3.fl.yelpcdn.com/bphoto/obWcTvCGc-bqrWa7QgQ_dw/o.jpg", "is_closed": false, "url": "https://www.yelp.com/biz/coppins-well-seattle?adjust_creative=-1fqk3b4uv9OCeinSAO6RQ&utm_campaign=yelp_api_v3&utm_medium=api_v3_business_search&utm_source=-1fqk3b4uv9OCeinSAO6RQ", "review_count": 31, "categories": [{"alias": "apartments", "title": "Apartments"}], "rating": 4.0, "coordinates": {"latitude": 47.6101, "longitude": -122.32404}, "transactions": [], "location": {"address1": "1000 Minor Ave", "address2": "", "address3": "", "city": "Seattle", "zip_code": "98104", "country": "US", "state": "WA", "display_address": ["1000 Minor Ave", "Seattle, WA 98104"]}, "phone": "+18556581828", "display_phone": "(855) 658-1828", "distance": 17660.99974936854}, {"id": "BIzIyF8mX5IAwTlbiD53yA", "alias": "jack-apartments-seattle-2", "name": "Jack Apartments", "image_url": "https://s3-media4.fl.yelpcdn.com/bphoto/RDkWE4F-RjtQSOC_bEMLWw/o.jpg", "is_closed": false, "url": "https://www.yelp.com/biz/jack-apartments-seattle-2?adjust_creative=-1fqk3b4uv9OCeinSAO6RQ&utm_campaign=yelp_api_v3&utm_medium=api_v3_business_search&utm_source=-1fqk3b4uv9OCeinSAO6RQ", "review_count": 7, "categories": [{"alias": "apartments", "title": "Apartments"}], "rating": 3.5, "coordinates": {"latitude": 47.613664, "longitude": -122.318527}, "transactions": [], "location": {"address1": "1427 11th Ave", "address2": null, "address3": null, "city": "Seattle", "zip_code": "98122", "country": "US", "state": "WA", "display_address": ["1427 11th Ave", "Seattle, WA 98122"]}, "phone": "+12067079586", "display_phone": "(206) 707-9586", "distance": 17734.85897408244}, {"id": "rQiVT7V5bt0FHGLjpmeTLA", "alias": "vesper-apartments-seattle", "name": "Vesper Apartments", "image_url": "https://s3-media3.fl.yelpcdn.com/bphoto/T3MnzPMAjJ1CWg1-xB3gsg/o.jpg", "is_closed": false, "url": "https://www.yelp.com/biz/vesper-apartments-seattle?adjust_creative=-1fqk3b4uv9OCeinSAO6RQ&utm_campaign=yelp_api_v3&utm_medium=api_v3_business_search&utm_source=-1fqk3b4uv9OCeinSAO6RQ", "review_count": 14, "categories": [{"alias": "apartments", "title": "Apartments"}], "rating": 2.0, "coordinates": {"latitude": 47.61262, "longitude": -122.327048}, "transactions": [], "location": {"address1": "1321 Minor Ave", "address2": "", "address3": "", "city": "Seattle", "zip_code": "98101", "country": "US", "state": "WA", "display_address": ["1321 Minor Ave", "Seattle, WA 98101"]}, "phone": "+12066238662", "display_phone": "(206) 623-8662", "distance": 18013.140922978982}, {"id": "1lvU_ZIkD7MwwTVWQUtVtA", "alias": "david-reames-lakewood", "name": "David Reames", "image_url": "https://s3-media2.fl.yelpcdn.com/bphoto/zHFA49US3ySJzHmAAm9C3w/o.jpg", "is_closed": false, "url": "https://www.yelp.com/biz/david-reames-lakewood?adjust_creative=-1fqk3b4uv9OCeinSAO6RQ&utm_campaign=yelp_api_v3&utm_medium=api_v3_business_search&utm_source=-1fqk3b4uv9OCeinSAO6RQ", "review_count": 10, "categories": [{"alias": "propertymgmt", "title": "Property Management"}, {"alias": "realestateagents", "title": "Real Estate Agents"}], "rating": 2.5, "coordinates": {"latitude": 47.166906, "longitude": -122.52117}, "transactions": [], "location": {"address1": "9842 Gravelly Lake Dr SW", "address2": null, "address3": "", "city": "Lakewood", "zip_code": "98499", "country": "US", "state": "WA", "display_address": ["9842 Gravelly Lake Dr SW", "Lakewood, WA 98499"]}, "phone": "+12534059555", "display_phone": "(253) 405-9555", "distance": 43049.25493622796}, {"id": "sOZxplJB2muwjf6KH05vCw", "alias": "brink-property-management-bellevue", "name": "Brink Property Management", "image_url": "https://s3-media2.fl.yelpcdn.com/bphoto/EGKxuGvortAS9Idc5vZp9g/o.jpg", "is_closed": false, "url": "https://www.yelp.com/biz/brink-property-management-bellevue?adjust_creative=-1fqk3b4uv9OCeinSAO6RQ&utm_campaign=yelp_api_v3&utm_medium=api_v3_business_search&utm_source=-1fqk3b4uv9OCeinSAO6RQ", "review_count": 84, "categories": [{"alias": "propertymgmt", "title": "Property Management"}], "rating": 3.0, "coordinates": {"latitude": 47.6180657, "longitude": -122.1789032}, "transactions": [], "location": {"address1": "12011 Bel-red Rd", "address2": "Ste 101", "address3": "", "city": "Bellevue", "zip_code": "98005", "country": "US", "state": "WA", "display_address": ["12011 Bel-red Rd", "Ste 101", "Bellevue, WA 98005"]}, "phone": "+14254584848", "display_phone": "(425) 458-4848", "distance": 15256.972868642377}, {"id": "lR1p8pRNk_WKI_IgANAz0g", "alias": "urban-key-seattle", "name": "Urban Key", "image_url": "https://s3-media1.fl.yelpcdn.com/bphoto/F0ZmPH0wGBHgXxBa5dID6A/o.jpg", "is_closed": false, "url": "https://www.yelp.com/biz/urban-key-seattle?adjust_creative=-1fqk3b4uv9OCeinSAO6RQ&utm_campaign=yelp_api_v3&utm_medium=api_v3_business_search&utm_source=-1fqk3b4uv9OCeinSAO6RQ", "review_count": 32, "categories": [{"alias": "realestatesvcs", "title": "Real Estate Services"}], "rating": 2.0, "coordinates": {"latitude": 47.5612868, "longitude": -122.3884888}, "transactions": [], "location": {"address1": "4400 SW Alaska St", "address2": "", "address3": null, "city": "Seattle", "zip_code": "98116", "country": "US", "state": "WA", "display_address": ["4400 SW Alaska St", "Seattle, WA 98116"]}, "phone": "+12069321090", "display_phone": "(206) 932-1090", "distance": 17556.70246937701}, {"id": "e-ib3NX88R7m8vQpelgemw", "alias": "avalon-meydenbauer-bellevue", "name": "Avalon Meydenbauer", "image_url": "https://s3-media3.fl.yelpcdn.com/bphoto/dkCFIXTLcJAI9tiM2WhDPg/o.jpg", "is_closed": false, "url": "https://www.yelp.com/biz/avalon-meydenbauer-bellevue?adjust_creative=-1fqk3b4uv9OCeinSAO6RQ&utm_campaign=yelp_api_v3&utm_medium=api_v3_business_search&utm_source=-1fqk3b4uv9OCeinSAO6RQ", "review_count": 77, "categories": [{"alias": "apartments", "title": "Apartments"}], "rating": 3.0, "coordinates": {"latitude": 47.61228, "longitude": -122.20107}, "transactions": [], "location": {"address1": "10410 NE 2nd St", "address2": "", "address3": "", "city": "Bellevue", "zip_code": "98004", "country": "US", "state": "WA", "display_address": ["10410 NE 2nd St", "Bellevue, WA 98004"]}, "phone": "+14254413523", "display_phone": "(425) 441-3523", "distance": 14627.364480455986}, {"id": "SkJe4nmuQ0fYNkmKOV0wAA", "alias": "professional-insulation-services-spanaway", "name": "Professional Insulation Services", "image_url": "https://s3-media1.fl.yelpcdn.com/bphoto/RN2skiPG0YPCNECKbA5KdA/o.jpg", "is_closed": false, "url": "https://www.yelp.com/biz/professional-insulation-services-spanaway?adjust_creative=-1fqk3b4uv9OCeinSAO6RQ&utm_campaign=yelp_api_v3&utm_medium=api_v3_business_search&utm_source=-1fqk3b4uv9OCeinSAO6RQ", "review_count": 7, "categories": [{"alias": "insulationinstallation", "title": "Insulation Installation"}], "rating": 4.5, "coordinates": {"latitude": 47.0522362, "longitude": -122.3543799}, "transactions": [], "location": {"address1": "5610 224th St E", "address2": null, "address3": "", "city": "Spanaway", "zip_code": "98387", "country": "US", "state": "WA", "display_address": ["5610 224th St E", "Spanaway, WA 98387"]}, "phone": "+12065789201", "display_phone": "(206) 578-9201", "distance": 49318.174631859925}, {"id": "XNa323OYOaP7_5izydTnhg", "alias": "aboda-woodinville", "name": "ABODA", "image_url": "https://s3-media2.fl.yelpcdn.com/bphoto/2tBXVupUU65ilXADokEcgw/o.jpg", "is_closed": false, "url": "https://www.yelp.com/biz/aboda-woodinville?adjust_creative=-1fqk3b4uv9OCeinSAO6RQ&utm_campaign=yelp_api_v3&utm_medium=api_v3_business_search&utm_source=-1fqk3b4uv9OCeinSAO6RQ", "review_count": 40, "categories": [{"alias": "homecleaning", "title": "Home Cleaning"}, {"alias": "carpet_cleaning", "title": "Carpet Cleaning"}, {"alias": "propertymgmt", "title": "Property Management"}], "rating": 2.0, "coordinates": {"latitude": 47.778496, "longitude": -122.14422}, "transactions": [], "location": {"address1": "6525 240th St SE", "address2": "Bldg B", "address3": "", "city": "Woodinville", "zip_code": "98072", "country": "US", "state": "WA", "display_address": ["6525 240th St SE", "Bldg B", "Woodinville, WA 98072"]}, "phone": "+14258610500", "display_phone": "(425) 861-0500", "distance": 33239.65897755945}, {"id": "oZzHJTh99U9JpsEjxGOocw", "alias": "wave-broadband-bothell-2", "name": "Wave Broadband", "image_url": "https://s3-media1.fl.yelpcdn.com/bphoto/11OKz3egDN-JdXKpiZUl7Q/o.jpg", "is_closed": false, "url": "https://www.yelp.com/biz/wave-broadband-bothell-2?adjust_creative=-1fqk3b4uv9OCeinSAO6RQ&utm_campaign=yelp_api_v3&utm_medium=api_v3_business_search&utm_source=-1fqk3b4uv9OCeinSAO6RQ", "review_count": 616, "categories": [{"alias": "isps", "title": "Internet Service Providers"}, {"alias": "televisionserviceproviders", "title": "Television Service Providers"}], "rating": 1.5, "coordinates": {"latitude": 47.77766, "longitude": -122.18349}, "transactions": [], "location": {"address1": "3700 Monte Villa Pkwy", "address2": "Ste 110", "address3": null, "city": "Bothell", "zip_code": "98021", "country": "US", "state": "WA", "display_address": ["3700 Monte Villa Pkwy", "Ste 110", "Bothell, WA 98021"]}, "phone": "+18004278686", "display_phone": "(800) 427-8686", "distance": 32981.51682457122}, {"id": "qDTsRK7o4VaClN3J_GkqTw", "alias": "jordan-river-moving-and-storage-kirkland-2", "name": "Jordan River Moving & Storage", "image_url": "https://s3-media2.fl.yelpcdn.com/bphoto/wd-qJMh9z98EZ6Pofvcwqg/o.jpg", "is_closed": false, "url": "https://www.yelp.com/biz/jordan-river-moving-and-storage-kirkland-2?adjust_creative=-1fqk3b4uv9OCeinSAO6RQ&utm_campaign=yelp_api_v3&utm_medium=api_v3_business_search&utm_source=-1fqk3b4uv9OCeinSAO6RQ", "review_count": 254, "categories": [{"alias": "movers", "title": "Movers"}], "rating": 3.0, "coordinates": {"latitude": 47.71289185630897, "longitude": -122.155251}, "transactions": [], "location": {"address1": "12515 Willows Rd NE", "address2": "Ste 220", "address3": "", "city": "Kirkland", "zip_code": "98034", "country": "US", "state": "WA", "display_address": ["12515 Willows Rd NE", "Ste 220", "Kirkland, WA 98034"]}, "phone": "+12062360808", "display_phone": "(206) 236-0808", "distance": 25899.449458860065}]